[{"count":2,"city":"Ripollet","province":"Barcelona","coordinates":{"lat":41.49845,"lng":2.1569325}},{"count":530,"city":"Barcelona","province":"Barcelona","coordinates":{"lat":41.3873974,"lng":2.168568}},{"count":2140,"city":"Madrid","province":"Madrid","coordinates":{"lat":40.4167754,"lng":-3.7037902}},{"count":17,"city":"Santiago de Compostela","province":"A Coruña","coordinates":{"lat":42.8768606,"lng":-8.5441729}},{"count":137,"city":"Valencia","province":"Valencia/València","coordinates":{"lat":39.4699075,"lng":-0.3762881}},{"count":2,"city":"Avilés","province":"Asturias","coordinates":{"lat":43.5579523,"lng":-5.9246653}},{"count":131,"city":"Sevilla","province":"Sevilla","coordinates":{"lat":37.3890924,"lng":-5.9844589}},{"count":14,"city":"San Fernando de Henares","province":"Madrid","coordinates":{"lat":40.42905289999999,"lng":-3.5104537}},{"count":11,"city":"Logroño","province":"La Rioja","coordinates":{"lat":42.4627195,"lng":-2.4449852}},{"count":21,"city":"Oviedo","province":"Asturias","coordinates":{"lat":43.3622522,"lng":-5.8485461}},{"count":1,"city":"Armilla","province":"Granada","coordinates":{"lat":37.1512306,"lng":-3.6167146}},{"count":1,"city":"Bunyola","province":"Islas Baleares/Illes Balears","coordinates":{"lat":39.6959651,"lng":2.7002508}},{"count":5,"city":"Leganés","province":"Madrid","coordinates":{"lat":40.3319506,"lng":-3.7686545}},{"count":19,"city":"Girona","province":"Girona","coordinates":{"lat":41.9794005,"lng":2.8214264}},{"count":38,"city":"Sant Cugat del Vallès","province":"Barcelona","coordinates":{"lat":41.4664438,"lng":2.0701279}},{"count":31,"city":"Murcia","province":"Murcia","coordinates":{"lat":37.9922399,"lng":-1.1306544}},{"count":2,"city":"Vilassar de Mar","province":"Barcelona","coordinates":{"lat":41.5041512,"lng":2.3838304}},{"count":1,"city":"Aldaia","province":"Valencia/València","coordinates":{"lat":39.4595217,"lng":-0.4927134}},{"count":2,"city":"Villaviciosa de Odón","province":"Madrid","coordinates":{"lat":40.3626807,"lng":-3.9139109}},{"count":30,"city":"Pozuelo de Alarcón","province":"Madrid","coordinates":{"lat":40.4440627,"lng":-3.8058517}},{"count":56,"city":"Tres Cantos","province":"Madrid","coordinates":{"lat":40.600727,"lng":-3.7079745}},{"count":3,"city":"Palencia","province":"Palencia","coordinates":{"lat":42.0096857,"lng":-4.5288016}},{"count":121,"city":"Bilbao","province":"Vizcaya/Bizkaia","coordinates":{"lat":43.2630126,"lng":-2.9349852}},{"count":12,"city":"Terrassa","province":"Barcelona","coordinates":{"lat":41.56314820000001,"lng":2.0054917}},{"count":12,"city":"Las Palmas de Gran Canaria","province":"Las Palmas","coordinates":{"lat":28.1008837,"lng":-15.4653897}},{"count":29,"city":"Santa Cruz de Tenerife","province":"Santa Cruz de Tenerife","coordinates":{"lat":28.2915637,"lng":-16.6291304}},{"count":64,"city":"Zaragoza","province":"Zaragoza","coordinates":{"lat":41.6488226,"lng":-0.8890853}},{"count":17,"city":"Tarragona","province":"Tarragona","coordinates":{"lat":41.1188827,"lng":1.2444909}},{"count":19,"city":"Getafe","province":"Madrid","coordinates":{"lat":40.3082504,"lng":-3.7323934}},{"count":1,"city":"Viveiro","province":"Lugo","coordinates":{"lat":43.6642649,"lng":-7.594534800000001}},{"count":12,"city":"Jaén","province":"Jaén","coordinates":{"lat":37.7795594,"lng":-3.7849716}},{"count":10,"city":"San Sebastián de los Reyes","province":"Madrid","coordinates":{"lat":40.5589672,"lng":-3.6261976}},{"count":1,"city":"Zumarraga","province":"Guipúzcoa/Gipuzkoa","coordinates":{"lat":43.085954,"lng":-2.3147677}},{"count":10,"city":"Guadalajara","province":"Guadalajara","coordinates":{"lat":20.6596988,"lng":-103.3496092}},{"count":2,"city":"Alcaudete","province":"Jaén","coordinates":{"lat":37.5908541,"lng":-4.083601}},{"count":5,"city":"Riudellots de la Selva","province":"Girona","coordinates":{"lat":41.9010061,"lng":2.8026192}},{"count":45,"city":"Palma de Mallorca","province":"Islas Baleares/Illes Balears","coordinates":{"lat":39.5696005,"lng":2.6501603}},{"count":3,"city":"Castelldefels","province":"Barcelona","coordinates":{"lat":41.2800161,"lng":1.9766294}},{"count":61,"city":"A Coruña","province":"A Coruña","coordinates":{"lat":43.3623436,"lng":-8.4115401}},{"count":2,"city":"Esparreguera","province":"Barcelona","coordinates":{"lat":41.5562225,"lng":1.8611011}},{"count":7,"city":"Cáceres","province":"Cáceres","coordinates":{"lat":39.4751257,"lng":-6.371453}},{"count":1,"city":"Tarazona","province":"Zaragoza","coordinates":{"lat":41.6488226,"lng":-0.8890853}},{"count":31,"city":"Valladolid","province":"Valladolid","coordinates":{"lat":41.652251,"lng":-4.724532099999999}},{"count":1,"city":"Puerto Real","province":"Cádiz","coordinates":{"lat":36.5316485,"lng":-6.1831947}},{"count":19,"city":"Granada","province":"Granada","coordinates":{"lat":37.1774605,"lng":-3.5984368}},{"count":75,"city":"Alcobendas","province":"Madrid","coordinates":{"lat":40.5371361,"lng":-3.6370715}},{"count":25,"city":"Pamplona/Iruña","province":"Navarra","coordinates":{"lat":42.812526,"lng":-1.6457745}},{"count":9,"city":"Burgos","province":"Burgos","coordinates":{"lat":42.3380758,"lng":-3.5812692}},{"count":11,"city":"Almería","province":"Almería","coordinates":{"lat":37.1035929,"lng":-2.302446}},{"count":1,"city":"Tomelloso","province":"Ciudad Real","coordinates":{"lat":39.15837450000001,"lng":-3.0214475}},{"count":8,"city":"Boadilla del Monte","province":"Madrid","coordinates":{"lat":40.4122794,"lng":-3.8887699}},{"count":2,"city":"Toda España","province":"Madrid","coordinates":{"lat":40.4167754,"lng":-3.7037902}},{"count":8,"city":"Coslada","province":"Madrid","coordinates":{"lat":40.4260459,"lng":-3.5651646}},{"count":1,"city":"Sant Pere de Riudebitlles","province":"Barcelona","coordinates":{"lat":41.4504992,"lng":1.7044013}},{"count":1,"city":"Zaragoza","province":"Vizcaya/Bizkaia","coordinates":{"lat":41.6488226,"lng":-0.8890853}},{"count":110,"city":"Málaga","province":"Málaga","coordinates":{"lat":36.7211113,"lng":-4.4210306}},{"count":4,"city":"Alzira","province":"Valencia/València","coordinates":{"lat":39.1511854,"lng":-0.4333643}},{"count":31,"city":"Las Rozas de Madrid","province":"Madrid","coordinates":{"lat":40.4935329,"lng":-3.8757916}},{"count":12,"city":"Cornellà de Llobregat","province":"Barcelona","coordinates":{"lat":41.3573827,"lng":2.0707159}},{"count":11,"city":"Albacete","province":"Albacete","coordinates":{"lat":38.9942576,"lng":-1.860173}},{"count":1,"city":"Villanueva Mesía","province":"Granada","coordinates":{"lat":37.214584,"lng":-4.0112611}},{"count":22,"city":"Salamanca","province":"Salamanca","coordinates":{"lat":42.1578412,"lng":-78.71503109999999}},{"count":2,"city":"Vila-Seca","province":"Tarragona","coordinates":{"lat":41.10934890000001,"lng":1.1400998}},{"count":1,"city":"Valnecia","province":"Valencia/València","coordinates":{"lat":39.4699075,"lng":-0.3762881}},{"count":3,"city":"Gavà","province":"Barcelona","coordinates":{"lat":41.2987914,"lng":1.9930466}},{"count":47,"city":"Alicante/Alacant","province":"Alicante/Alacant","coordinates":{"lat":38.3459963,"lng":-0.4906855}},{"count":4,"city":"Remoto","province":"Madrid","coordinates":{"lat":40.39292349999999,"lng":-3.6902174}},{"count":8,"city":"Granollers","province":"Barcelona","coordinates":{"lat":41.60619270000001,"lng":2.2870889}},{"count":16,"city":"L'Hospitalet de Llobregat","province":"Barcelona","coordinates":{"lat":41.3661865,"lng":2.1164942}},{"count":6,"city":"Telde","province":"Las Palmas","coordinates":{"lat":27.9955313,"lng":-15.4173726}},{"count":5,"city":"Viladecans","province":"Barcelona","coordinates":{"lat":41.315296,"lng":2.0133208}},{"count":4,"city":"Quart de Poblet","province":"Valencia/València","coordinates":{"lat":39.4825816,"lng":-0.4448669}},{"count":4,"city":"Badalona","province":"Barcelona","coordinates":{"lat":41.4469883,"lng":2.2450325}},{"count":3,"city":"Mollet del Vallès","province":"Barcelona","coordinates":{"lat":41.542551,"lng":2.2113698}},{"count":1,"city":"San Vicente del Raspeig/Sant Vicent del Raspeig","province":"Alicante/Alacant","coordinates":{"lat":38.3964181,"lng":-0.5248710999999999}},{"count":11,"city":"Sabadell","province":"Barcelona","coordinates":{"lat":41.5462745,"lng":2.1086131}},{"count":22,"city":"Santander","province":"Cantabria","coordinates":{"lat":43.4636346,"lng":-3.8226402}},{"count":19,"city":"Torrejón de Ardoz","province":"Madrid","coordinates":{"lat":40.4567552,"lng":-3.4754967}},{"count":8,"city":"Cádiz","province":"Cádiz","coordinates":{"lat":36.6361857,"lng":-5.898713900000001}},{"count":7,"city":"El Prat de Llobregat","province":"Barcelona","coordinates":{"lat":41.3225846,"lng":2.096263}},{"count":4,"city":"Palau-solità i Plegamans","province":"Barcelona","coordinates":{"lat":41.5839461,"lng":2.1804146}},{"count":7,"city":"Badajoz","province":"Badajoz","coordinates":{"lat":38.8794495,"lng":-6.9706535}},{"count":4,"city":"Torrelodones","province":"Madrid","coordinates":{"lat":40.5766078,"lng":-3.9293646}},{"count":4,"city":"Mérida","province":"Badajoz","coordinates":{"lat":38.9394272,"lng":-6.365157}},{"count":7,"city":"Arganda del Rey","province":"Madrid","coordinates":{"lat":40.3064074,"lng":-3.4479915}},{"count":1,"city":"Motril","province":"Granada","coordinates":{"lat":36.7489747,"lng":-3.5180363}},{"count":1,"city":"Villaturiel","province":"León","coordinates":{"lat":42.5184664,"lng":-5.4863015}},{"count":12,"city":"Córdoba","province":"Córdoba","coordinates":{"lat":-32.2968402,"lng":-63.580611}},{"count":12,"city":"Manresa","province":"Barcelona","coordinates":{"lat":41.7211121,"lng":1.8164413}},{"count":1,"city":"Villadiego","province":"Burgos","coordinates":{"lat":42.5146862,"lng":-4.0101705}},{"count":1,"city":"Ceuta","province":"Ceuta","coordinates":{"lat":35.8893874,"lng":-5.3213455}},{"count":4,"city":"San Cristóbal de La Laguna","province":"Santa Cruz de Tenerife","coordinates":{"lat":28.4874009,"lng":-16.3159061}},{"count":1,"city":"Lliçà d'Amunt","province":"Barcelona","coordinates":{"lat":41.6081296,"lng":2.2396577}},{"count":8,"city":"Cerdanyola del Vallès","province":"Barcelona","coordinates":{"lat":41.490047,"lng":2.1397612}},{"count":2,"city":"Ajalvir","province":"Madrid","coordinates":{"lat":40.5302674,"lng":-3.4839237}},{"count":2,"city":"Cuéllar","province":"Segovia","coordinates":{"lat":41.4011715,"lng":-4.311795099999999}},{"count":1,"city":"Cistérniga","province":"Valladolid","coordinates":{"lat":41.6095133,"lng":-4.682500999999999}},{"count":4,"city":"Móstoles","province":"Madrid","coordinates":{"lat":40.3232129,"lng":-3.8676291}},{"count":1,"city":"Llucmajor","province":"Islas Baleares/Illes Balears","coordinates":{"lat":39.4907976,"lng":2.8917081}},{"count":1,"city":"Fortuna","province":"Murcia","coordinates":{"lat":38.2054404,"lng":-1.1544963}},{"count":1,"city":"Azkoitia","province":"Guipúzcoa/Gipuzkoa","coordinates":{"lat":43.1776439,"lng":-2.3109203}},{"count":3,"city":"Andorra La Vella","province":"Andorra la Vella","coordinates":{"lat":42.4919826,"lng":1.5111806}},{"count":6,"city":"Reus","province":"Tarragona","coordinates":{"lat":41.1498259,"lng":1.1055321}},{"count":12,"city":"Derio","province":"Vizcaya/Bizkaia","coordinates":{"lat":43.2955357,"lng":-2.8849016}},{"count":7,"city":"Zamudio","province":"Vizcaya/Bizkaia","coordinates":{"lat":43.2891757,"lng":-2.8527235}},{"count":4,"city":"Lugo","province":"Lugo","coordinates":{"lat":43.0764348,"lng":-7.6114217}},{"count":21,"city":"Donostia-San Sebastián","province":"Guipúzcoa/Gipuzkoa","coordinates":{"lat":43.318334,"lng":-1.9812313}},{"count":1,"city":"Andorra","province":"Andorra la Vella","coordinates":{"lat":42.50631740000001,"lng":1.5218355}},{"count":1,"city":"Montornès del Vallès","province":"Barcelona","coordinates":{"lat":41.5445244,"lng":2.2670286}},{"count":1,"city":"Albolote","province":"Granada","coordinates":{"lat":37.2283225,"lng":-3.6543577}},{"count":29,"city":"Vitoria-Gasteiz","province":"Álava/Araba","coordinates":{"lat":42.8531869,"lng":-2.6732421}},{"count":1,"city":"Huércal de Almería","province":"Almería","coordinates":{"lat":36.8881816,"lng":-2.4445519}},{"count":8,"city":"Llanera","province":"Asturias","coordinates":{"lat":43.4629306,"lng":-5.9324818}},{"count":15,"city":"Paterna","province":"Valencia/València","coordinates":{"lat":39.5037093,"lng":-0.4431618}},{"count":4,"city":"Valdepeñas","province":"Ciudad Real","coordinates":{"lat":38.7605618,"lng":-3.3876655}},{"count":5,"city":"Ávila","province":"Ávila","coordinates":{"lat":40.6934511,"lng":-4.893562699999999}},{"count":2,"city":"Alcantarilla","province":"Murcia","coordinates":{"lat":37.9695167,"lng":-1.2193422}},{"count":9,"city":"Ciudad Real","province":"Ciudad Real","coordinates":{"lat":38.9848295,"lng":-3.927377799999999}},{"count":20,"city":"Vigo","province":"Pontevedra","coordinates":{"lat":42.24059889999999,"lng":-8.7207268}},{"count":2,"city":"Fuenlabrada","province":"Madrid","coordinates":{"lat":40.2774625,"lng":-3.7943157}},{"count":2,"city":"Sevilla La Nueva","province":"Madrid","coordinates":{"lat":40.3473337,"lng":-4.0274014}},{"count":10,"city":"Lleida","province":"Lleida","coordinates":{"lat":42.073315,"lng":1.0586135}},{"count":1,"city":"Lliçà de Vall","province":"Barcelona","coordinates":{"lat":41.5846483,"lng":2.2285864}},{"count":1,"city":"El Masnou","province":"Barcelona","coordinates":{"lat":41.4826455,"lng":2.3114706}},{"count":1,"city":"Montaverner","province":"Valencia/València","coordinates":{"lat":38.8881041,"lng":-0.4944843}},{"count":1,"city":"Egüés","province":"Navarra","coordinates":{"lat":42.824973,"lng":-1.5520407}},{"count":2,"city":"Petrer","province":"Alicante/Alacant","coordinates":{"lat":38.4807948,"lng":-0.7719244}},{"count":3,"city":"Alcorcón","province":"Madrid","coordinates":{"lat":40.3468454,"lng":-3.8278443}},{"count":4,"city":"Barakaldo","province":"Vizcaya/Bizkaia","coordinates":{"lat":43.2969875,"lng":-2.9862029}},{"count":1,"city":"Aldeatejada","province":"Salamanca","coordinates":{"lat":40.9543779,"lng":-5.6951334}},{"count":19,"city":"León","province":"León","coordinates":{"lat":7.1384743,"lng":-73.13014299999999}},{"count":2,"city":"Lisboa","province":"Lisboa","coordinates":{"lat":38.7222524,"lng":-9.1393366}},{"count":1,"city":"Lorca","province":"Murcia","coordinates":{"lat":37.6735925,"lng":-1.6968357}},{"count":1,"city":"Olèrdola","province":"Barcelona","coordinates":{"lat":41.3181561,"lng":1.7246856}},{"count":1,"city":"Águilas","province":"Murcia","coordinates":{"lat":37.4119365,"lng":-1.5826055}},{"count":1,"city":"España","province":"Murcia","coordinates":{"lat":37.9922399,"lng":-1.1306544}},{"count":2,"city":"Talavera de la Reina","province":"Toledo","coordinates":{"lat":39.962884,"lng":-4.830453599999999}},{"count":1,"city":"Camas","province":"Sevilla","coordinates":{"lat":37.401173,"lng":-6.0321884}},{"count":4,"city":"Oporto","province":"Porto","coordinates":{"lat":41.1579438,"lng":-8.629105299999999}},{"count":9,"city":"Eivissa","province":"Islas Baleares/Illes Balears","coordinates":{"lat":39.0200099,"lng":1.4821482}},{"count":3,"city":"Jerez de la Frontera","province":"Cádiz","coordinates":{"lat":36.6850064,"lng":-6.126074399999999}},{"count":1,"city":"Parla","province":"Madrid","coordinates":{"lat":40.2373062,"lng":-3.7739869}},{"count":2,"city":"Laudio/Llodio","province":"Álava/Araba","coordinates":{"lat":43.1455195,"lng":-2.9875565}},{"count":1,"city":"Tudela, Navarra / Nafarroa","province":"Alicante/Alacant","coordinates":{"lat":38.3459963,"lng":-0.4906855}},{"count":3,"city":"Vilanova i la Geltrú","province":"Barcelona","coordinates":{"lat":41.2151504,"lng":1.727446}},{"count":9,"city":"Mataró","province":"Barcelona","coordinates":{"lat":41.5381124,"lng":2.4447406}},{"count":1,"city":"Basauri","province":"Vizcaya/Bizkaia","coordinates":{"lat":43.2353175,"lng":-2.8912652}},{"count":9,"city":"Rivas-Vaciamadrid","province":"Madrid","coordinates":{"lat":40.3519065,"lng":-3.5357334}},{"count":5,"city":"Sant Boi de Llobregat","province":"Barcelona","coordinates":{"lat":41.3458415,"lng":2.035041}},{"count":1,"city":"Náquera","province":"Valencia/València","coordinates":{"lat":39.4783551,"lng":-0.3759894}},{"count":2,"city":"Vélez-Málaga","province":"Málaga","coordinates":{"lat":36.7799228,"lng":-4.1005589}},{"count":2,"city":"Blanes","province":"Girona","coordinates":{"lat":41.6759954,"lng":2.7902289}},{"count":4,"city":"Madrid, Spain","province":"Madrid","coordinates":{"lat":40.4167754,"lng":-3.7037902}},{"count":1,"city":"Einbeck","province":"Madrid","coordinates":{"lat":51.8205718,"lng":9.8683087}},{"count":7,"city":"Castellón de la Plana/Castelló de la Plana","province":"Castellón/Castelló","coordinates":{"lat":40.0017505,"lng":-0.05599390000000001}},{"count":8,"city":"Gijón","province":"Asturias","coordinates":{"lat":43.5322015,"lng":-5.6611195}},{"count":4,"city":"Oñati","province":"Guipúzcoa/Gipuzkoa","coordinates":{"lat":43.0341127,"lng":-2.4171658}},{"count":1,"city":"Segovia","province":"Segovia","coordinates":{"lat":40.9429032,"lng":-4.108806899999999}},{"count":1,"city":"Cassà de la Selva","province":"Girona","coordinates":{"lat":41.8862532,"lng":2.8751691}},{"count":1,"city":"Cualquier Ubicación","province":"Madrid","coordinates":{"lat":40.4167754,"lng":-3.7037902}},{"count":2,"city":"Durango","province":"Vizcaya/Bizkaia","coordinates":{"lat":43.15810810000001,"lng":-2.6735412}},{"count":2,"city":"Fuentealbilla","province":"Albacete","coordinates":{"lat":39.2675127,"lng":-1.5511323}},{"count":4,"city":"Santa Perpètua de Mogoda","province":"Barcelona","coordinates":{"lat":41.5353285,"lng":2.1821487}},{"count":2,"city":"Hernani","province":"Guipúzcoa/Gipuzkoa","coordinates":{"lat":43.26579280000001,"lng":-1.9768497}},{"count":3,"city":"Sant Just Desvern","province":"Barcelona","coordinates":{"lat":41.383333,"lng":2.0666616}},{"count":1,"city":"Ceutí","province":"Murcia","coordinates":{"lat":38.0800864,"lng":-1.272254}},{"count":1,"city":"Móra d'Ebre","province":"Tarragona","coordinates":{"lat":41.0867715,"lng":0.6381854}},{"count":1,"city":"Eibar","province":"Guipúzcoa/Gipuzkoa","coordinates":{"lat":43.1827331,"lng":-2.4814679}},{"count":2,"city":"Arrecife","province":"Las Palmas","coordinates":{"lat":28.9651694,"lng":-13.5550363}},{"count":1,"city":"Pau","province":"Otro País","coordinates":{"lat":43.2951,"lng":-0.370797}},{"count":2,"city":"Illescas","province":"Toledo","coordinates":{"lat":40.1262812,"lng":-3.8489895}},{"count":2,"city":"Irun","province":"Guipúzcoa/Gipuzkoa","coordinates":{"lat":43.3380969,"lng":-1.7888483}},{"count":2,"city":"Orkoien","province":"Navarra","coordinates":{"lat":42.8235015,"lng":-1.6959458}},{"count":1,"city":"Zestoa","province":"Guipúzcoa/Gipuzkoa","coordinates":{"lat":43.2407929,"lng":-2.2593466}},{"count":3,"city":"Aranguren","province":"Navarra","coordinates":{"lat":42.7893765,"lng":-1.5355407}},{"count":5,"city":"Toledo","province":"Toledo","coordinates":{"lat":39.8628316,"lng":-4.027323099999999}},{"count":1,"city":"Igorre","province":"Vizcaya/Bizkaia","coordinates":{"lat":43.1643497,"lng":-2.7792444}},{"count":5,"city":"Aranjuez","province":"Madrid","coordinates":{"lat":40.0305018,"lng":-3.6040527}},{"count":6,"city":"Ourense","province":"Ourense","coordinates":{"lat":42.33578929999999,"lng":-7.863880999999998}},{"count":2,"city":"Colmenar Viejo","province":"Madrid","coordinates":{"lat":40.6626481,"lng":-3.7710457}},{"count":1,"city":"España","province":"Madrid","coordinates":{"lat":40.4167754,"lng":-3.7037902}},{"count":4,"city":"Cuenca","province":"Cuenca","coordinates":{"lat":40.0703925,"lng":-2.1374162}},{"count":4,"city":"Huelva","province":"Huelva","coordinates":{"lat":37.6060122,"lng":-6.920913499999999}},{"count":1,"city":"Fuente Álamo de Murcia","province":"Murcia","coordinates":{"lat":37.7217494,"lng":-1.1719422}},{"count":1,"city":"Noblejas","province":"Toledo","coordinates":{"lat":39.97778760000001,"lng":-3.4410005}},{"count":1,"city":"Barberà del Vallès","province":"Barcelona","coordinates":{"lat":41.5136208,"lng":2.1255553}},{"count":1,"city":"Bell-Lloc d'Urgell","province":"Lleida","coordinates":{"lat":41.6303438,"lng":0.7791283}},{"count":6,"city":"Elche/Elx","province":"Alicante/Alacant","coordinates":{"lat":38.2699329,"lng":-0.7125608}},{"count":2,"city":"Algete","province":"Madrid","coordinates":{"lat":40.5964617,"lng":-3.5016452}},{"count":1,"city":"Culleredo","province":"A Coruña","coordinates":{"lat":43.3513525,"lng":-8.4083807}},{"count":3,"city":"La Vall d'Uixó","province":"Castellón/Castelló","coordinates":{"lat":39.8242386,"lng":-0.2315018}},{"count":1,"city":"Madrid","province":"Lisboa","coordinates":{"lat":40.4167754,"lng":-3.7037902}},{"count":1,"city":"Molina de Segura","province":"Murcia","coordinates":{"lat":38.05168099999999,"lng":-1.2073261}},{"count":2,"city":"Abrera","province":"Barcelona","coordinates":{"lat":41.5175266,"lng":1.9017802}},{"count":4,"city":"Vic","province":"Barcelona","coordinates":{"lat":41.9304373,"lng":2.2544335}},{"count":1,"city":"Alginet","province":"Valencia/València","coordinates":{"lat":39.2677367,"lng":-0.4785495}},{"count":1,"city":"Mairena del Aljarafe","province":"Sevilla","coordinates":{"lat":37.350923,"lng":-6.0520363}},{"count":1,"city":"Abanilla","province":"Murcia","coordinates":{"lat":38.2051808,"lng":-1.0406601}},{"count":1,"city":"Lasarte-Oria","province":"Guipúzcoa/Gipuzkoa","coordinates":{"lat":43.2684377,"lng":-2.0178149}},{"count":1,"city":"Montcada i Reixac","province":"Barcelona","coordinates":{"lat":41.4931546,"lng":2.181871000000001}},{"count":1,"city":"Los Corrales de Buelna","province":"Cantabria","coordinates":{"lat":43.2597761,"lng":-4.0669902}},{"count":1,"city":"Castro-Urdiales","province":"Cantabria","coordinates":{"lat":43.3688221,"lng":-3.2156354}},{"count":6,"city":"Esplugues de Llobregat","province":"Barcelona","coordinates":{"lat":41.3772561,"lng":2.0910377}},{"count":2,"city":"Barcelona","province":"Girona","coordinates":{}},{"count":1,"city":"Caldes de Montbui","province":"Barcelona","coordinates":{"lat":41.6512425,"lng":2.1352039}},{"count":1,"city":"Huarte/Uharte","province":"Navarra","coordinates":{"lat":42.8297005,"lng":-1.5903842}},{"count":2,"city":"El Escorial","province":"Madrid","coordinates":{"lat":40.592573,"lng":-4.100217}},{"count":1,"city":"Las Tablas","province":"Madrid","coordinates":{"lat":40.5050578,"lng":-3.6705215}},{"count":1,"city":"Onzonilla","province":"León","coordinates":{"lat":42.5247529,"lng":-5.5809011}},{"count":2,"city":"Bergondo","province":"A Coruña","coordinates":{"lat":43.3477173,"lng":-8.3966742}},{"count":1,"city":"Melilla","province":"Melilla","coordinates":{"lat":35.2922775,"lng":-2.9380973}},{"count":1,"city":"Ronda","province":"Málaga","coordinates":{"lat":36.746209,"lng":-5.161225099999999}},{"count":7,"city":"Majadahonda","province":"Madrid","coordinates":{"lat":40.4737586,"lng":-3.8683123}},{"count":2,"city":"Zamora","province":"Zamora","coordinates":{"lat":41.6095744,"lng":-5.898713900000001}},{"count":2,"city":"Catarroja","province":"Valencia/València","coordinates":{"lat":39.4038783,"lng":-0.4034584}},{"count":1,"city":"Vandellòs i l'Hospitalet de l'Infant","province":"Tarragona","coordinates":{"lat":40.9908991,"lng":0.9236691}},{"count":4,"city":"Sant Quirze del Vallès","province":"Barcelona","coordinates":{"lat":41.5351317,"lng":2.0776681}},{"count":1,"city":"Museros","province":"Valencia/València","coordinates":{"lat":39.4627515,"lng":-0.332276}},{"count":1,"city":"Manacor","province":"Islas Baleares/Illes Balears","coordinates":{"lat":39.5697165,"lng":3.2095318}},{"count":1,"city":"Alcúdia","province":"Islas Baleares/Illes Balears","coordinates":{"lat":39.8532672,"lng":3.1240239}},{"count":1,"city":"Spain","province":"Madrid","coordinates":{"lat":40.4167754,"lng":-3.7037902}},{"count":6,"city":"Martorell","province":"Barcelona","coordinates":{"lat":41.4774253,"lng":1.9175637}},{"count":4,"city":"Langreo","province":"Asturias","coordinates":{"lat":43.3081128,"lng":-5.6960562}},{"count":1,"city":"Oiartzun","province":"Guipúzcoa/Gipuzkoa","coordinates":{"lat":43.298838,"lng":-1.8624156}},{"count":3,"city":"Pontevedra","province":"Pontevedra","coordinates":{"lat":42.4298846,"lng":-8.6446202}},{"count":5,"city":"Erandio","province":"Vizcaya/Bizkaia","coordinates":{"lat":43.3028593,"lng":-2.9756534}},{"count":1,"city":"Cheste","province":"Valencia/València","coordinates":{"lat":39.4655896,"lng":-0.3313346}},{"count":10,"city":"Arrasate/Mondragón","province":"Guipúzcoa/Gipuzkoa","coordinates":{"lat":43.0648865,"lng":-2.4902081}},{"count":1,"city":"Martos","province":"Jaén","coordinates":{"lat":37.7182399,"lng":-3.9699874}},{"count":2,"city":"Málaga","province":"Madrid","coordinates":{"lat":40.4167754,"lng":-3.7037902}},{"count":5,"city":"Pinto","province":"Madrid","coordinates":{"lat":40.2375052,"lng":-3.6967718}},{"count":3,"city":"Gandia","province":"Valencia/València","coordinates":{"lat":38.968032,"lng":-0.1844671}},{"count":1,"city":"Archena","province":"Murcia","coordinates":{"lat":38.11677350000001,"lng":-1.3011431}},{"count":2,"city":"Almazora/Almassora","province":"Castellón/Castelló","coordinates":{"lat":39.9478425,"lng":-0.0629989}},{"count":2,"city":"Sagunto/Sagunt","province":"Valencia/València","coordinates":{"lat":39.6801121,"lng":-0.2784001}},{"count":1,"city":"Villarejo de Órbigo","province":"León","coordinates":{"lat":42.4450763,"lng":-5.904654499999999}},{"count":7,"city":"Alcalá de Henares","province":"Madrid","coordinates":{"lat":40.4843898,"lng":-3.3688023}},{"count":2,"city":"Torremolinos","province":"Málaga","coordinates":{"lat":36.6265566,"lng":-4.5160396}},{"count":1,"city":"El Puerto de Santa María","province":"Cádiz","coordinates":{"lat":36.6393281,"lng":-6.258836899999999}},{"count":1,"city":"Requena","province":"Valencia/València","coordinates":{"lat":39.4391297,"lng":-1.1736994}},{"count":1,"city":"Humanes de Madrid","province":"Madrid","coordinates":{"lat":40.2596169,"lng":-3.8209585}},{"count":1,"city":"Santovenia de la Valdoncina","province":"León","coordinates":{"lat":42.5436389,"lng":-5.622796}},{"count":3,"city":"Marbella","province":"Málaga","coordinates":{"lat":36.5102831,"lng":-4.8852579}},{"count":1,"city":"Miranda de Ebro","province":"Burgos","coordinates":{"lat":42.6869753,"lng":-2.945068}},{"count":1,"city":"Sant Joan d'Alacant","province":"Alicante/Alacant","coordinates":{"lat":38.4020456,"lng":-0.4360296}},{"count":1,"city":"Torrevieja","province":"Alicante/Alacant","coordinates":{"lat":37.9847003,"lng":-0.6808233}},{"count":1,"city":"Manises","province":"Valencia/València","coordinates":{"lat":39.4937868,"lng":-0.4635382999999999}},{"count":2,"city":"Molins de Rei","province":"Barcelona","coordinates":{"lat":41.4134488,"lng":2.0182425}},{"count":1,"city":"Madrid","province":"Valladolid","coordinates":{"lat":40.4167754,"lng":-3.7037902}},{"count":1,"city":"Juzbado","province":"Salamanca","coordinates":{"lat":41.0773762,"lng":-5.8624228}},{"count":1,"city":"Algeciras","province":"Cádiz","coordinates":{"lat":36.1407591,"lng":-5.456233}},{"count":1,"city":"Meco","province":"Madrid","coordinates":{"lat":40.5539468,"lng":-3.3263003}},{"count":3,"city":"Boecillo","province":"Valladolid","coordinates":{"lat":41.5415157,"lng":-4.7005972}},{"count":1,"city":"San Cibrao Das Viñas","province":"Ourense","coordinates":{"lat":42.2948445,"lng":-7.872840300000001}},{"count":2,"city":"Estepona","province":"Málaga","coordinates":{"lat":36.4256345,"lng":-5.1510261}},{"count":2,"city":"Banyoles","province":"Girona","coordinates":{"lat":42.1181833,"lng":2.7651488}},{"count":1,"city":"Chilches/Xilxes","province":"Castellón/Castelló","coordinates":{"lat":39.780565,"lng":-0.1822792}},{"count":1,"city":"Nigrán","province":"Pontevedra","coordinates":{"lat":42.1419428,"lng":-8.8062953}},{"count":2,"city":"Amorebieta-Etxano","province":"Vizcaya/Bizkaia","coordinates":{"lat":43.2204714,"lng":-2.7330533}},{"count":1,"city":"Leioa","province":"Vizcaya/Bizkaia","coordinates":{"lat":43.3246703,"lng":-2.9854477}},{"count":1,"city":"Ontinyent","province":"Valencia/València","coordinates":{"lat":38.8220593,"lng":-0.6063927}},{"count":1,"city":"La Rinconada","province":"Sevilla","coordinates":{"lat":37.4872681,"lng":-5.9816424}},{"count":8,"city":"Sant Joan Despí","province":"Barcelona","coordinates":{"lat":41.3673523,"lng":2.0566806}},{"count":1,"city":"Legorreta","province":"Guipúzcoa/Gipuzkoa","coordinates":{"lat":43.0848528,"lng":-2.1479772}},{"count":3,"city":"Parets del Vallès","province":"Barcelona","coordinates":{"lat":41.56468599999999,"lng":2.2285864}},{"count":1,"city":"Alquerías del Niño Perdido","province":"Castellón/Castelló","coordinates":{"lat":39.8972253,"lng":-0.1147471}},{"count":1,"city":"Torrefarrera","province":"Lleida","coordinates":{"lat":41.6735229,"lng":0.6086583}},{"count":1,"city":"Rincón de la Victoria","province":"Málaga","coordinates":{"lat":36.7176779,"lng":-4.280396}},{"count":3,"city":"Rubí","province":"Barcelona","coordinates":{"lat":41.4971174,"lng":2.0349243}},{"count":1,"city":"Astigarraga","province":"Guipúzcoa/Gipuzkoa","coordinates":{"lat":43.280929,"lng":-1.9484098}},{"count":1,"city":"Vilamalla","province":"Girona","coordinates":{"lat":42.217008,"lng":2.9706816}},{"count":1,"city":"Les Masies de Voltregà","province":"Barcelona","coordinates":{"lat":42.0172312,"lng":2.244446}},{"count":1,"city":"Amposta","province":"Tarragona","coordinates":{"lat":40.7067997,"lng":0.5801695}},{"count":2,"city":"Vilafranca del Penedès","province":"Barcelona","coordinates":{"lat":41.3461265,"lng":1.6979398}},{"count":1,"city":"Bali","province":"Indonesia","coordinates":{"lat":-8.4095178,"lng":115.188916}},{"count":1,"city":"Cardedeu","province":"Barcelona","coordinates":{"lat":41.6394024,"lng":2.3591531}},{"count":1,"city":"Calafell","province":"Tarragona","coordinates":{"lat":41.1938386,"lng":1.5664556}},{"count":1,"city":"L'Alfàs del Pi","province":"Alicante/Alacant","coordinates":{"lat":38.57855199999999,"lng":-0.09966399999999999}},{"count":3,"city":"Getxo","province":"Vizcaya/Bizkaia","coordinates":{"lat":43.3387367,"lng":-3.0081319}},{"count":4,"city":"Almería","province":"Sevilla","coordinates":{"lat":36.834047,"lng":-2.4637136}},{"count":1,"city":"Zona Franca / Teletreball","province":"Barcelona","coordinates":{"lat":41.3318679,"lng":2.1271694}},{"count":1,"city":"Villarreal/Vila-Real","province":"Castellón/Castelló","coordinates":{"lat":39.9397706,"lng":-0.1005932}},{"count":4,"city":"Villanueva de la Cañada","province":"Madrid","coordinates":{"lat":40.4481075,"lng":-3.9975566}},{"count":1,"city":"Soria","province":"Soria","coordinates":{"lat":41.7665464,"lng":-2.4790306}},{"count":1,"city":"Cabanillas del Campo","province":"Guadalajara","coordinates":{"lat":40.6378501,"lng":-3.2307113}},{"count":1,"city":"Usurbil","province":"Guipúzcoa/Gipuzkoa","coordinates":{"lat":43.2714405,"lng":-2.0498543}},{"count":1,"city":"Alaquàs","province":"Valencia/València","coordinates":{"lat":39.4518434,"lng":-0.4714694}},{"count":1,"city":"Santa Coloma de Gramenet","province":"Barcelona","coordinates":{"lat":41.4551421,"lng":2.2089109}},{"count":1,"city":"Zaldibar","province":"Vizcaya/Bizkaia","coordinates":{"lat":43.1718509,"lng":-2.5482725}},{"count":1,"city":"Donostia-San Sebastián","province":"Vizcaya/Bizkaia","coordinates":{"lat":43.318334,"lng":-1.9812313}},{"count":1,"city":"Rosselló","province":"Lleida","coordinates":{"lat":41.6938394,"lng":0.5949571}},{"count":2,"city":"Benavente","province":"Zamora","coordinates":{"lat":42.0028837,"lng":-5.6784691}},{"count":1,"city":"Arroyomolinos","province":"Madrid","coordinates":{"lat":40.2783308,"lng":-3.9215541}},{"count":1,"city":"Cantoria","province":"Almería","coordinates":{"lat":37.352402,"lng":-2.1927313}},{"count":1,"city":"Bilbao","province":"Álava/Araba","coordinates":{"lat":43.2630126,"lng":-2.9349852}},{"count":1,"city":"Balaguer","province":"Lleida","coordinates":{"lat":41.7877143,"lng":0.8008388}},{"count":2,"city":"Cartagena","province":"Murcia","coordinates":{"lat":37.6156944,"lng":-0.9892242}},{"count":2,"city":"Cabanes","province":"Castellón/Castelló","coordinates":{"lat":40.1247556,"lng":0.0933686}},{"count":2,"city":"Pozuelo de Alarcón","province":"Málaga","coordinates":{"lat":40.4440627,"lng":-3.8058517}},{"count":1,"city":"28016","province":"Madrid","coordinates":{"lat":40.4570185,"lng":-3.6750005}},{"count":1,"city":"Martorelles","province":"Barcelona","coordinates":{"lat":41.532089,"lng":2.235967}},{"count":2,"city":"Castellbisbal","province":"Barcelona","coordinates":{"lat":41.482929,"lng":1.9869293}},{"count":1,"city":"Valle de Trápaga-Trapagaran","province":"Vizcaya/Bizkaia","coordinates":{"lat":43.3049937,"lng":-3.0372333}},{"count":1,"city":"Sentmenat","province":"Barcelona","coordinates":{"lat":41.6130052,"lng":2.1359861}},{"count":1,"city":"Poligono De Las Mercedes","province":"Madrid","coordinates":{"lat":40.4495959,"lng":-3.581054999999999}},{"count":1,"city":"Mengíbar","province":"Jaén","coordinates":{"lat":37.9712748,"lng":-3.8082965}},{"count":1,"city":"Mojados","province":"Valladolid","coordinates":{"lat":41.4307031,"lng":-4.664410699999999}},{"count":1,"city":"Fuente del Maestre","province":"Badajoz","coordinates":{"lat":38.5267275,"lng":-6.4490114}},{"count":1,"city":"Zarautz","province":"Guipúzcoa/Gipuzkoa","coordinates":{"lat":43.284771,"lng":-2.1713967}},{"count":1,"city":"San Sebastián de los Reyes","province":"Málaga","coordinates":{"lat":36.721261,"lng":-4.4212655}},{"count":1,"city":"Paiporta","province":"Valencia/València","coordinates":{"lat":39.4274468,"lng":-0.4184093}},{"count":1,"city":"La Muela","province":"Zaragoza","coordinates":{"lat":41.5758184,"lng":-1.1161166}},{"count":1,"city":"Muel","province":"Zaragoza","coordinates":{"lat":41.4670056,"lng":-1.0874758}},{"count":1,"city":"Agramunt","province":"Lleida","coordinates":{"lat":41.78718689999999,"lng":1.0979794}},{"count":2,"city":"Albuixech","province":"Valencia/València","coordinates":{"lat":39.5429172,"lng":-0.3136781}},{"count":1,"city":"Cambre","province":"A Coruña","coordinates":{"lat":43.286882,"lng":-8.3197946}},{"count":1,"city":"San Adrián","province":"Navarra","coordinates":{"lat":42.335722,"lng":-1.9367994}},{"count":1,"city":"Los Barrios","province":"Cádiz","coordinates":{"lat":36.1850645,"lng":-5.4925573}},{"count":2,"city":"Olèrdola / Teletreball","province":"Barcelona","coordinates":{"lat":41.3181561,"lng":1.7246856}},{"count":1,"city":"Jávea/Xàbia","province":"Alicante/Alacant","coordinates":{"lat":38.7890109,"lng":0.1660813}},{"count":1,"city":"Centelles","province":"Barcelona","coordinates":{"lat":41.7973754,"lng":2.2222269}},{"count":1,"city":"Elorrio","province":"Vizcaya/Bizkaia","coordinates":{"lat":43.12955890000001,"lng":-2.5423293}},{"count":1,"city":"Cualquier ubicación","province":"Madrid","coordinates":{"lat":40.4167754,"lng":-3.7037902}},{"count":1,"city":"Estella/Lizarra","province":"Navarra","coordinates":{"lat":42.6720856,"lng":-2.0324524}},{"count":2,"city":"Villacañas","province":"Toledo","coordinates":{"lat":39.6247278,"lng":-3.3373237}},{"count":2,"city":"Tarancón","province":"Cuenca","coordinates":{"lat":40.0105152,"lng":-3.0074463}},{"count":1,"city":"Manlleu","province":"Barcelona","coordinates":{"lat":42.0111171,"lng":2.2778128}},{"count":1,"city":"Huesca","province":"Huesca","coordinates":{"lat":42.131845,"lng":-0.4078058}},{"count":1,"city":"Casablanca","province":"Marruecos","coordinates":{"lat":33.5731104,"lng":-7.589843399999999}},{"count":3,"city":"Arteixo","province":"A Coruña","coordinates":{"lat":43.303707,"lng":-8.5102275}},{"count":1,"city":"Madrid","province":"Málaga","coordinates":{"lat":40.4167754,"lng":-3.7037902}},{"count":1,"city":"Villaviciosa","province":"Asturias","coordinates":{"lat":43.4817214,"lng":-5.435574799999999}},{"count":1,"city":"Tàrrega","province":"Lleida","coordinates":{"lat":41.6480797,"lng":1.1409432}},{"count":1,"city":"Bergara","province":"Guipúzcoa/Gipuzkoa","coordinates":{"lat":43.1259269,"lng":-2.4232063}},{"count":1,"city":"Zafra","province":"Badajoz","coordinates":{"lat":38.4225303,"lng":-6.415722499999999}},{"count":1,"city":"Guadalajara O Madrid","province":"Madrid","coordinates":{"lat":40.4167754,"lng":-3.7037902}},{"count":1,"city":"San Javier","province":"Murcia","coordinates":{"lat":37.8054749,"lng":-0.8379313}},{"count":2,"city":"Barcelona","province":"Madrid","coordinates":{"lat":40.4167754,"lng":-3.7037902}},{"count":1,"city":"Arnedo","province":"La Rioja","coordinates":{"lat":42.22567919999999,"lng":-2.1020752}},{"count":1,"city":"Ibi","province":"Alicante/Alacant","coordinates":{"lat":38.6307459,"lng":-0.5446911999999999}},{"count":1,"city":"L'Alcora","province":"Castellón/Castelló","coordinates":{"lat":40.0746462,"lng":-0.2139151}},{"count":2,"city":"Alcoy/Alcoi","province":"Alicante/Alacant","coordinates":{"lat":38.6987066,"lng":-0.4810937}},{"count":1,"city":"Ingenio","province":"Las Palmas","coordinates":{"lat":27.9182821,"lng":-15.4331746}},{"count":2,"city":"Tomares","province":"Sevilla","coordinates":{"lat":37.375855,"lng":-6.0450059}},{"count":1,"city":"Villamayor","province":"Salamanca","coordinates":{"lat":41.0016627,"lng":-5.693793299999999}},{"count":1,"city":"El Prat de Llobregat","province":"Girona","coordinates":{"lat":41.321615,"lng":2.0962139}},{"count":1,"city":"L'Eliana","province":"Valencia/València","coordinates":{"lat":39.5628099,"lng":-0.5305086999999999}},{"count":1,"city":"Manzanares","province":"Ciudad Real","coordinates":{"lat":39.0437007,"lng":-3.3590446}},{"count":2,"city":"Igualada","province":"Barcelona","coordinates":{"lat":41.5847817,"lng":1.6226538}},{"count":2,"city":"Ferrol","province":"A Coruña","coordinates":{"lat":43.48964600000001,"lng":-8.2193451}},{"count":1,"city":"Patalavaca","province":"Las Palmas","coordinates":{"lat":27.7705457,"lng":-15.6875826}},{"count":1,"city":"Elciego","province":"Álava/Araba","coordinates":{"lat":42.5149608,"lng":-2.6185459}},{"count":1,"city":"Riyadh","province":"Arabia Saudita","coordinates":{"lat":24.7135517,"lng":46.6752957}},{"count":1,"city":"San Juan del Puerto","province":"Huelva","coordinates":{"lat":37.3157974,"lng":-6.8431402}},{"count":1,"city":"Castellar de la Frontera","province":"Cádiz","coordinates":{"lat":36.2853497,"lng":-5.420280399999999}},{"count":1,"city":"Silla","province":"Valencia/València","coordinates":{"lat":39.3626846,"lng":-0.4120058}},{"count":1,"city":"Ortuella","province":"Vizcaya/Bizkaia","coordinates":{"lat":43.3093399,"lng":-3.0538639}},{"count":1,"city":"Beniparrell","province":"Valencia/València","coordinates":{"lat":39.3814871,"lng":-0.4107509}},{"count":1,"city":"Picanya","province":"Valencia/València","coordinates":{"lat":39.4390354,"lng":-0.4360881}},{"count":1,"city":"Puerto de la Cruz","province":"Santa Cruz de Tenerife","coordinates":{"lat":28.411413,"lng":-16.5449611}},{"count":1,"city":"Viladecavalls","province":"Barcelona","coordinates":{"lat":41.5546052,"lng":1.9588007}},{"count":1,"city":"Eskoriatza","province":"Guipúzcoa/Gipuzkoa","coordinates":{"lat":43.0165575,"lng":-2.5278399}},{"count":2,"city":"Camargo","province":"Cantabria","coordinates":{"lat":43.4047027,"lng":-3.8846224}},{"count":1,"city":"Guissona","province":"Lleida","coordinates":{"lat":41.784519,"lng":1.2903074}},{"count":2,"city":"Bollullos de la Mitación","province":"Sevilla","coordinates":{"lat":37.339834,"lng":-6.1381188}},{"count":1,"city":"Xinzo de Limia","province":"Ourense","coordinates":{"lat":42.0631102,"lng":-7.7259471}},{"count":1,"city":"San Antonio de Benagéber","province":"Valencia/València","coordinates":{"lat":39.5629756,"lng":-0.4927134}},{"count":1,"city":"San Juan De Luz","province":"Aquitaine","coordinates":{"lat":43.388051,"lng":-1.663055}},{"count":1,"city":"Sada","province":"A Coruña","coordinates":{"lat":43.3476427,"lng":-8.2760021}},{"count":2,"city":"Valls","province":"Tarragona","coordinates":{"lat":41.2854449,"lng":1.2494589}},{"count":1,"city":"Vilalba","province":"Lugo","coordinates":{"lat":43.2974899,"lng":-7.6807717}},{"count":1,"city":"Trillo","province":"Guadalajara","coordinates":{"lat":40.7007797,"lng":-2.5928841}},{"count":2,"city":"Elda","province":"Alicante/Alacant","coordinates":{"lat":38.4765073,"lng":-0.7964597}},{"count":1,"city":"Astorga","province":"León","coordinates":{"lat":42.4549303,"lng":-6.053251100000001}},{"count":1,"city":"Alcalá de Guadaíra","province":"Sevilla","coordinates":{"lat":37.3396769,"lng":-5.8418054}},{"count":1,"city":"Toda España Teletrabajo","province":"Madrid","coordinates":{"lat":40.4167754,"lng":-3.7037902}},{"count":1,"city":"El Sauzal","province":"Santa Cruz de Tenerife","coordinates":{"lat":28.4749785,"lng":-16.4341492}},{"count":3,"city":"Vienna Or Spain (Remote)","province":"Madrid","coordinates":{"lat":40.4167754,"lng":-3.7037902}},{"count":1,"city":"Loeches","province":"Madrid","coordinates":{"lat":40.38348209999999,"lng":-3.4170301}},{"count":1,"city":"Hannover","province":"Otro País","coordinates":{"lat":52.3758916,"lng":9.732010400000002}},{"count":1,"city":"Villajoyosa/La Vila Joiosa","province":"Alicante/Alacant","coordinates":{"lat":38.5079606,"lng":-0.2285807}},{"count":1,"city":"Siero","province":"Asturias","coordinates":{"lat":43.3915032,"lng":-5.6608158}},{"count":1,"city":"O Porriño","province":"Pontevedra","coordinates":{"lat":42.1608459,"lng":-8.6177291}},{"count":1,"city":"Castellbell i El Vilar","province":"Barcelona","coordinates":{"lat":41.6291032,"lng":1.8641519}},{"count":1,"city":"Baden","province":"Bayern","coordinates":{"lat":48.7904472,"lng":11.4978895}},{"count":1,"city":"Valencia, Santander, Sevilla","province":"Valencia/València","coordinates":{"lat":39.4699075,"lng":-0.3762881}},{"count":1,"city":"Teletrabajo","province":"Madrid","coordinates":{"lat":40.4167754,"lng":-3.7037902}},{"count":1,"city":"Altea","province":"Alicante/Alacant","coordinates":{"lat":38.6029075,"lng":-0.0450666}},{"count":1,"city":"Real de Gandía","province":"Valencia/València","coordinates":{"lat":39.4851721,"lng":-0.3547065}},{"count":1,"city":"Benalmádena","province":"Málaga","coordinates":{"lat":36.5987966,"lng":-4.5168056}},{"count":1,"city":"Collado Villalba","province":"Madrid","coordinates":{"lat":40.6308775,"lng":-4.0055605}},{"count":1,"city":"Mogán","province":"Las Palmas","coordinates":{"lat":27.8839292,"lng":-15.723279}}]